City_ID,City,Lat,Lng,Max Temp,Humidity,Cloudiness,Wind Speed,Country,Date
0,miyaly,48.8844,53.7836,25.140000000000043,48,4,3.21,KZ,1688523881
1,jamestown,42.097,-79.2353,21.80000000000001,86,0,3.6,US,1688523652
2,rawson,-43.3002,-65.1023,9.57000000000005,40,0,10.21,AR,1688523882
3,bredy,52.4153,60.3411,19.260000000000048,81,4,4.79,RU,1688523882
4,port-aux-francais,-49.35,70.2167,4.520000000000039,76,100,12.74,TF,1688523882
5,albany,42.6001,-73.9662,21.230000000000018,92,10,1.85,US,1688523641
6,ushuaia,-54.8,-68.3,1.8100000000000023,75,0,1.03,AR,1688523590
7,avarua,-21.2078,-159.775,25.03000000000003,78,100,3.6,CK,1688523634
8,margaret river,-33.95,115.0667,12.580000000000041,64,95,9.3,AU,1688523883
9,los altos,37.3852,-122.1141,24.78000000000003,66,0,7.2,US,1688523883
10,papatowai,-46.5619,169.4708,8.060000000000002,78,97,9.44,NZ,1688523655
11,aioun,16.6614,-9.6149,34.23000000000002,38,37,6.88,MR,1688523884
12,st. john's,47.5649,-52.7093,20.660000000000025,98,100,6.17,CA,1688523692
13,arraial do cabo,-22.9661,-42.0278,20.060000000000002,67,3,6.32,BR,1688523689
14,kapuskasing,49.4169,-82.4331,26.0,65,20,2.57,CA,1688523674
15,tulln,48.3283,16.0586,20.760000000000048,79,65,0.97,AT,1688523885
16,passagem franca,-6.1797,-43.7836,27.02000000000004,39,43,3.57,BR,1688523885
17,nema,57.5067,50.5011,16.689999999999998,73,6,0.83,RU,1688523885
18,qaqortoq,60.7167,-46.0333,4.82000000000005,88,80,3.45,GL,1688523681
19,olonkinbyen,70.9221,-8.7187,4.140000000000043,95,100,8.3,SJ,1688523644
20,puerto natales,-51.7236,-72.4875,-1.2799999999999727,88,100,2.03,CL,1688523672
21,strugi-krasnyye,58.2675,29.1114,10.5,98,51,3.2,RU,1688523886
22,zima,53.9202,102.0442,15.060000000000002,95,100,5.68,RU,1688523886
23,anar darah,32.7587,61.654,26.75,19,0,15.2,AF,1688523887
24,bengkulu,-3.8004,102.2655,25.920000000000016,84,54,1.64,ID,1688523484
25,hermanus,-34.4187,19.2345,6.560000000000002,75,64,4.21,ZA,1688523640
26,adamstown,-25.066,-130.1015,20.810000000000002,68,7,3.96,PN,1688523630
27,gaiman,-43.2897,-65.4929,9.020000000000039,37,0,10.72,AR,1688523888
28,port mathurin,-19.6833,63.4167,23.390000000000043,67,48,10.85,MU,1688523652
29,afaahiti,-17.75,-149.2833,27.930000000000007,80,70,7.42,PF,1688523700
30,norton,-17.8833,30.7,8.220000000000027,83,28,0.84,ZW,1688523671
31,sitka,57.0531,-135.33,14.939999999999998,77,100,7.72,US,1688523717
32,tura,25.5198,90.2201,27.170000000000016,87,73,1.91,IN,1688523635
33,laguna,38.421,-121.4238,34.14000000000004,43,0,4.63,US,1688523889
34,waitangi,-43.9535,-176.5597,7.680000000000007,71,100,4.92,NZ,1688523633
35,emerald,-23.5333,148.1667,23.52000000000004,57,17,3.13,AU,1688523890
36,vernon,50.2581,-119.2691,29.78000000000003,28,47,0.0,CA,1688523752
37,mount isa,-20.7333,139.5,19.870000000000005,56,39,1.54,AU,1688523713
38,invercargill,-46.4,168.35,8.490000000000009,74,100,7.48,NZ,1688523645
39,port elizabeth,-33.918,25.5701,12.160000000000025,81,40,4.63,ZA,1688523665
40,lospalos,-8.5186,127.0025,24.810000000000002,81,100,4.38,TL,1688523891
41,edinburgh of the seven seas,-37.0676,-12.3116,12.03000000000003,86,99,9.16,SH,1688523632
42,molina,-35.1167,-71.2833,10.210000000000036,84,100,1.03,CL,1688523891
43,spencer,43.1414,-95.1444,21.02000000000004,93,100,6.11,US,1688523892
44,kalashnikovo,57.2824,35.2262,13.680000000000007,94,86,2.44,RU,1688523892
45,mundri,-6.9558,111.71,28.439999999999998,65,6,3.25,ID,1688523892
46,puerto baquerizo moreno,-0.9,-89.6,25.150000000000034,77,80,5.2,EC,1688523748
47,whitehorse,60.7161,-135.0538,20.010000000000048,32,75,7.2,CA,1688523670
48,rio gallegos,-51.6226,-69.2181,1.0300000000000296,80,75,1.54,AR,1688523894
49,rurrenabaque,-14.4413,-67.5278,21.620000000000005,80,1,0.47,BO,1688523894
50,papao,-17.75,-149.55,28.82000000000005,79,13,6.41,PF,1688523894
51,puerto ayora,-0.7393,-90.3518,25.310000000000002,86,100,2.68,EC,1688523650
52,datong,40.0936,113.2914,28.57000000000005,14,0,7.54,CN,1688523895
53,college,64.8569,-147.8028,20.879999999999995,45,75,5.66,US,1688523638
54,east london,-33.0153,27.9116,14.520000000000039,60,93,8.21,ZA,1688523698
55,west island,-12.1568,96.8225,25.99000000000001,69,75,7.72,CC,1688523635
56,as sulayyil,20.4607,45.5779,29.140000000000043,14,7,1.96,SA,1688523896
57,nadi,-17.8,177.4167,27.0,61,75,3.6,FJ,1688523682
58,caleta de carquin,-11.0925,-77.6267,20.74000000000001,81,48,5.45,PE,1688523757
59,blackmans bay,-43.0167,147.3167,11.07000000000005,82,94,1.06,AU,1688523650
60,semnan,35.5729,53.3971,25.610000000000014,42,7,1.72,IR,1688523897
61,luganville,-15.5333,167.1667,27.220000000000027,64,76,3.99,VU,1688523673
62,aasiaat,68.7098,-52.8699,2.640000000000043,98,100,3.33,GL,1688523757
63,aykhal,66.0,111.5,19.870000000000005,50,100,3.91,RU,1688523686
64,aban,56.67,96.06,21.79000000000002,53,95,3.52,RU,1688523898
65,shixing,24.9482,114.0657,30.360000000000014,69,100,2.22,CN,1688523898
66,sandnessjoen,66.0217,12.6316,11.29000000000002,83,100,1.34,NO,1688523898
67,remire-montjoly,4.9167,-52.2667,24.02000000000004,94,75,0.0,GF,1688523655
68,abilene,32.4487,-99.7331,30.120000000000005,48,0,5.14,US,1688523899
69,quzhou,28.9594,118.8686,31.74000000000001,67,95,4.74,CN,1688523899
70,liwale,-9.7667,37.9333,14.860000000000014,96,1,1.15,TZ,1688523663
71,pisco,-13.7,-76.2167,21.03000000000003,73,12,5.66,PE,1688523719
72,lebu,-37.6167,-73.65,8.840000000000032,80,100,1.98,CL,1688523647
73,uturoa,-16.7333,-151.4333,26.920000000000016,69,16,5.73,PF,1688523750
74,tiksi,71.6872,128.8694,5.1200000000000045,73,100,4.23,RU,1688523644
75,yuzhno-kurilsk,44.0306,145.8556,13.370000000000005,95,100,2.64,RU,1688523677
76,zeya,53.75,127.2667,31.390000000000043,37,40,0.96,RU,1688523733
77,iqaluit,63.7506,-68.5145,2.8500000000000227,93,75,5.14,CA,1688523541
78,hamilton,39.1834,-84.5333,26.02000000000004,80,0,0.0,US,1688523691
79,valle de banderas,20.8,-105.2333,28.110000000000014,89,100,0.0,MX,1688523902
80,santa ana de yacuma,-13.75,-65.4333,23.700000000000045,57,0,1.6,BO,1688523903
81,grytviken,-54.2811,-36.5092,0.7700000000000387,95,100,1.91,GS,1688523904
82,ponta delgada,37.7333,-25.6667,19.400000000000034,82,75,2.57,PT,1688523904
83,sogndal,61.2283,7.1003,13.210000000000036,66,100,4.12,NO,1688523904
84,vorgashor,67.5833,63.95,15.400000000000034,76,4,6.9,RU,1688523687
85,mammoth lakes,37.6485,-118.9721,22.400000000000034,33,0,6.17,US,1688523905
86,constantia,44.1833,28.65,19.379999999999995,83,0,1.18,RO,1688523655
87,rongelap,11.1635,166.8941,27.670000000000016,80,79,7.97,MH,1688523689
88,mata-utu,-13.2816,-176.1745,27.910000000000025,72,53,9.19,WF,1688523905
89,bethel,41.3712,-73.414,23.05000000000001,85,0,0.0,US,1688523651
90,puerto penasco,31.3167,-113.5333,28.840000000000032,82,0,2.24,MX,1688523906
91,flying fish cove,-10.4217,105.6791,25.82000000000005,73,75,5.14,CX,1688523760
92,puerto san jose,13.9256,-90.8244,27.120000000000005,81,84,0.63,GT,1688523658
93,hurghada,27.2574,33.8129,30.02000000000004,25,0,2.06,EG,1688523907
94,i-n-salah,27.1935,2.4607,36.51000000000005,11,5,3.46,DZ,1688523699
95,monrovia,6.3005,-10.7969,24.870000000000005,85,64,3.28,LR,1688523907
96,longyearbyen,78.2186,15.6401,12.910000000000025,47,0,9.77,SJ,1688523645
97,nuku'alofa,-21.1333,-175.2,24.189999999999998,64,75,3.09,TO,1688523908
98,haiku-pauwela,20.9219,-156.3051,27.920000000000016,66,40,10.29,US,1688523755
99,tual,-5.6667,132.75,26.910000000000025,82,46,7.31,ID,1688523908
100,kampong thom,12.7111,104.8887,29.930000000000007,67,90,1.48,KH,1688523908
101,ribeira grande,38.5167,-28.7,18.760000000000048,82,7,2.24,PT,1688523426
102,kourou,5.1552,-52.6478,24.03000000000003,90,72,3.2,GF,1688523909
103,saipan,15.1355,145.701,31.390000000000043,100,75,3.6,MP,1688523480
104,atafu village,-8.5421,-172.5159,28.129999999999995,78,25,7.32,TK,1688523650
105,careiro da varzea,-3.2003,-59.8119,28.340000000000032,78,92,1.32,BR,1688523910
106,krasnyy kholm,58.0607,37.1203,13.32000000000005,92,3,3.17,RU,1688523910
107,gazojak,41.1875,61.4036,28.480000000000018,29,0,3.02,TM,1688523910
108,tingi,-11.3,35.0333,12.28000000000003,65,0,1.35,TZ,1688523911
109,alice springs,-23.7,133.8833,15.75,51,100,4.12,AU,1688523577
110,vorkuta,67.5,64.0,15.610000000000014,76,4,6.9,RU,1688523912
111,axim,4.8699,-2.2405,24.430000000000007,90,74,1.63,GH,1688523912
112,coahuayana de hidalgo,18.7,-103.6583,27.450000000000045,79,60,1.03,MX,1688523913
113,geneina,13.45,22.45,28.29000000000002,48,79,3.86,SD,1688523914
114,ephraim,39.3597,-111.5863,26.010000000000048,33,15,2.75,US,1688523914
115,fandrandava,-21.5208,47.2453,7.980000000000018,96,0,1.11,MG,1688523914
116,port lincoln,-34.7333,135.8667,13.730000000000018,61,96,7.23,AU,1688523542
117,lata,40.1629,-8.3327,16.710000000000036,99,67,1.26,PT,1688523915
118,iskateley,67.6803,53.1512,14.32000000000005,82,46,7.4,RU,1688523688
119,dakhla,23.6848,-15.958,20.140000000000043,95,5,8.41,EH,1688523651
120,ilulissat,69.2167,-51.1,7.010000000000048,93,75,2.57,GL,1688523654
121,kenai,60.5544,-151.2583,13.350000000000023,78,100,1.54,US,1688523916
122,bandiagara,14.3501,-3.6104,30.08000000000004,42,100,1.37,ML,1688523917
123,klyuchi,52.2667,79.1667,19.77000000000004,52,79,6.6,RU,1688523675
124,inarajan village,13.2736,144.7484,32.44,85,15,4.71,GU,1688523917
125,lubuklinggau,-3.3,102.8667,25.900000000000034,89,77,0.7,ID,1688523917
126,holualoa,19.6228,-155.9522,27.910000000000025,76,40,5.66,US,1688523747
127,vinh yen,21.31,105.5967,29.970000000000027,71,97,2.42,VN,1688523918
128,broome,42.2506,-75.833,22.79000000000002,90,0,1.17,US,1688523919
129,stanley,54.868,-1.6985,11.610000000000014,91,75,2.06,GB,1688523667
130,san buenaventura,27.0833,-101.5333,29.480000000000018,65,82,3.8,MX,1688523919
131,safford,32.834,-109.7076,37.51000000000005,12,1,9.26,US,1688523919
132,livingston,55.9029,-3.5226,11.230000000000018,93,0,2.57,GB,1688523920
133,codrington,-38.2667,141.9667,11.610000000000014,78,91,6.37,AU,1688523690
134,santa elena de uairen,4.6167,-61.1333,19.129999999999995,96,46,1.09,VE,1688523920
135,kayenta,36.7278,-110.2546,30.470000000000027,11,0,11.24,US,1688523920
136,north bend,43.4065,-124.2243,27.360000000000014,77,0,7.72,US,1688523921
137,smara,26.7384,-11.6719,24.0,56,0,3.94,EH,1688523921
138,george town,5.4112,100.3354,30.960000000000036,78,20,2.57,MY,1688523411
139,douz,33.4663,9.0203,27.920000000000016,42,0,3.95,TN,1688523922
140,anadyr,64.75,177.4833,9.28000000000003,87,100,1.0,RU,1688523646
141,amga,60.8953,131.9608,26.629999999999995,50,90,1.9,RU,1688523752
142,onega,63.9061,38.1404,12.220000000000027,87,99,5.06,RU,1688523923
143,bilibino,68.0546,166.4372,12.32000000000005,36,1,3.97,RU,1688523639
144,chadron,42.8294,-102.9999,14.82000000000005,77,100,4.12,US,1688523923
145,la'ie,21.6477,-157.9253,30.980000000000018,66,0,4.47,US,1688523660
146,kodiak,57.79,-152.4072,8.730000000000018,93,100,4.63,US,1688523645
147,nemuro,43.3236,145.575,11.200000000000045,98,100,5.6,JP,1688523676
148,souillac,-20.5167,57.5167,20.210000000000036,88,40,3.09,MU,1688523924
149,el granada,37.5027,-122.4694,23.840000000000032,77,100,8.75,US,1688523749
150,castillos,-34.1667,-53.8333,17.610000000000014,79,47,4.91,UY,1688523782
151,panaba,21.2833,-88.2667,26.939999999999998,80,98,3.62,MX,1688523925
152,ust-nera,64.5667,143.2,22.75,47,46,2.96,RU,1688523659
153,bantay,17.5847,120.3892,32.76000000000005,70,7,2.4,PH,1688523684
154,alta,69.9689,23.2717,13.590000000000032,81,100,0.0,NO,1688523926
155,inderbor,48.55,51.7833,24.160000000000025,60,6,4.92,KZ,1688523926
156,wailua homesteads,22.0669,-159.378,28.439999999999998,74,40,6.17,US,1688523647
157,metahara,8.9,39.9167,22.57000000000005,66,31,4.62,ET,1688523926
158,susuman,62.7833,148.1667,22.25,55,100,0.88,RU,1688523687
159,port alfred,-33.5906,26.891,10.660000000000025,85,26,2.24,ZA,1688523522
160,ciudad bolivar,8.1222,-63.5497,25.640000000000043,83,84,6.1,VE,1688523928
161,yellowknife,62.456,-114.3525,21.29000000000002,30,75,4.12,CA,1688523649
162,sosnogorsk,63.6023,53.8817,17.090000000000032,65,4,2.7,RU,1688523929
163,vilyuchinsk,52.9306,158.4028,23.150000000000034,77,86,2.66,RU,1688523783
164,thompson,55.7435,-97.8558,11.090000000000032,76,75,1.03,CA,1688523642
165,cookeville,36.1628,-85.5016,24.450000000000045,92,0,0.0,US,1688523930
166,verkh-chebula,56.0308,87.6218,20.150000000000034,59,28,3.04,RU,1688523930
167,fale old settlement,-9.3852,-171.2468,28.230000000000018,78,14,7.37,TK,1688523646
168,qarazhal,48.0078,70.7903,22.620000000000005,40,13,1.46,KZ,1688523930
169,sao francisco,-15.9486,-44.8644,18.439999999999998,46,31,3.0,BR,1688523931
170,luau,-10.7073,22.2247,12.860000000000014,55,0,2.12,AO,1688523931
171,qamdo,31.1667,97.2333,11.79000000000002,58,100,1.48,CN,1688523931
172,isafjordur,66.0755,-23.124,5.3799999999999955,94,100,4.34,IS,1688523673
173,sokoni,-6.4333,39.55,24.890000000000043,71,0,6.75,TZ,1688523932
174,magadan,59.5667,150.8,18.629999999999995,78,65,4.31,RU,1688523932
175,tazovsky,67.4667,78.7,17.680000000000007,81,6,5.97,RU,1688523638
176,lihue,21.9789,-159.3672,28.77000000000004,68,40,6.17,US,1688523639
177,weno,7.4515,151.8468,29.970000000000027,79,100,1.54,FM,1688523745
178,bredasdorp,-34.5322,20.0403,7.180000000000007,79,100,0.82,ZA,1688523642
179,lauingen,48.5677,10.4271,15.510000000000048,84,43,2.59,DE,1688523933
180,saint-pierre,-21.3393,55.4781,17.82000000000005,68,0,4.12,RE,1688523738
181,chonchi,-42.6128,-73.8092,5.6200000000000045,89,73,4.07,CL,1688523671
182,menongue,-14.6585,17.691,7.710000000000036,59,0,1.41,AO,1688523934
183,keflavik,64.0049,-22.5624,5.9500000000000455,87,40,9.77,IS,1688523456
184,arica,-18.475,-70.3042,19.129999999999995,77,100,4.12,CL,1688523935
185,nagqu,31.5,92.0,8.400000000000034,76,100,4.87,CN,1688523762
186,geraldton,-28.7667,114.6,15.230000000000018,88,75,3.6,AU,1688523679
187,broken hill,-31.95,141.4333,12.700000000000045,60,0,6.44,AU,1688523905
188,fada,9.5667,8.3,19.49000000000001,96,81,0.98,NG,1688523695
189,truro,50.2653,-5.0544,14.600000000000023,77,20,9.77,GB,1688523936
190,calvinia,-31.4707,19.776,8.420000000000016,54,7,3.07,ZA,1688523936
191,khromtau,50.2503,58.4347,20.590000000000032,66,0,4.65,KZ,1688523936
192,tolanaro,-25.0319,46.9987,18.04000000000002,72,20,3.09,MG,1688523691
193,porvoo,60.3923,25.6651,14.28000000000003,92,66,6.76,FI,1688523937
194,mahina,-17.5065,-149.489,28.870000000000005,65,40,3.09,PF,1688523937
195,dubbo,-32.25,148.6167,13.07000000000005,94,75,3.6,AU,1688523834
196,smirnykh,49.75,142.8333,12.400000000000034,95,100,0.5,RU,1688523937
197,borgarnes,64.5383,-21.9206,6.03000000000003,84,95,4.58,IS,1688523938
198,happy valley-goose bay,53.3168,-60.3315,18.170000000000016,63,75,4.12,CA,1688523709
199,birobidzhan,48.8,132.95,25.360000000000014,63,3,5.28,RU,1688523938
200,bikenibeu village,1.3673,173.1241,30.980000000000018,74,20,5.14,KI,1688523938
201,salamanca,40.8333,-6.0,16.140000000000043,73,0,0.29,ES,1688523939
202,mbandaka,0.0487,18.2603,20.80000000000001,94,92,1.29,CD,1688523702
203,pell city,33.5862,-86.2861,26.100000000000023,95,75,0.0,US,1688523940
204,coquimbo,-29.9533,-71.3436,14.28000000000003,76,0,3.04,CL,1688523649
205,orobo,-7.745,-35.6022,18.840000000000032,94,41,3.77,BR,1688523940
206,vila franca do campo,37.7167,-25.4333,19.230000000000018,87,100,1.83,PT,1688523716
207,christchurch,-43.5333,172.6333,14.120000000000005,56,0,2.06,NZ,1688523474
208,carnarvon,-24.8667,113.6333,19.010000000000048,58,99,6.34,AU,1688523665
209,la ronge,55.1001,-105.2842,18.140000000000043,32,20,2.06,CA,1688523763
210,guatrache,-37.6678,-63.5302,12.370000000000005,39,100,7.3,AR,1688523942
211,belmonte,-15.8631,-38.8828,20.600000000000023,83,73,4.42,BR,1688523674
212,utrik,11.2278,169.8474,27.660000000000025,79,82,8.16,MH,1688523635
213,waingapu,-9.6567,120.2641,28.060000000000002,69,6,4.88,ID,1688523943
214,tangalle,6.024,80.7911,25.30000000000001,89,100,8.24,LK,1688523698
215,greymouth,-42.4667,171.2,11.180000000000007,84,95,4.99,NZ,1688523552
216,kruisfontein,-34.0033,24.7314,9.939999999999998,64,100,5.72,ZA,1688523661
217,phalodi,27.1333,72.3667,31.900000000000034,58,99,7.87,IN,1688523944
218,talitsa,56.8804,60.0213,18.30000000000001,88,42,1.7,RU,1688523944
219,al burayqah,30.4062,19.5739,23.710000000000036,82,0,3.93,LY,1688523769
220,jenbach,47.4013,11.7406,11.53000000000003,98,100,2.22,AT,1688523945
221,kamaishi,39.2667,141.8833,20.350000000000023,84,90,3.1,JP,1688523945
222,lakatoro,-16.0999,167.4164,26.420000000000016,68,41,4.53,VU,1688523753
223,bechar,31.6167,-2.2167,31.180000000000007,13,2,3.09,DZ,1688523945
224,fuglafjordur,62.244,-6.814,7.260000000000048,78,65,4.93,FO,1688523706
225,port macquarie,-31.4333,152.9167,22.160000000000025,47,0,3.43,AU,1688523800
226,stephenville,32.2207,-98.2023,30.0,76,40,0.0,US,1688523946
227,san luis de la loma,17.2706,-100.8939,27.80000000000001,81,65,0.19,MX,1688523947
228,namibe,-15.1961,12.1522,18.82000000000005,74,0,1.61,AO,1688523641
229,talnakh,69.4865,88.3972,21.230000000000018,66,98,4.94,RU,1688523665
230,tabou,4.423,-7.3528,24.810000000000002,86,44,2.9,CI,1688523947
231,caycuma,41.4264,32.0756,20.25,89,0,1.5,TR,1688523948
232,newman,37.3138,-121.0208,34.129999999999995,43,0,2.24,US,1688523792
233,dryden,49.7833,-92.7503,18.160000000000025,72,100,3.09,CA,1688523772
234,kristiansund,63.1115,7.732,11.360000000000014,82,100,1.54,NO,1688523949
235,box elder,41.5005,-112.8764,23.83000000000004,41,48,8.57,US,1688523949
236,komsomol'skiy,43.9783,46.6985,21.129999999999995,65,98,2.62,RU,1688523949
237,prado,-17.3411,-39.2208,19.82000000000005,79,99,3.05,BR,1688523950
238,conduaga,8.862,117.4893,28.110000000000014,80,100,1.12,PH,1688523950
239,hadibu,12.65,54.0333,25.08000000000004,81,100,12.46,YE,1688523649
240,klaksvik,62.2266,-6.589,7.510000000000048,76,53,5.28,FO,1688523724
241,shenjiamen,29.9576,122.298,24.78000000000003,92,100,3.09,CN,1688523951
242,inari,68.906,27.0288,13.110000000000014,92,100,2.72,FI,1688523952
243,xilin hot,43.9667,116.0333,18.870000000000005,50,76,10.72,CN,1688523952
244,skopin,53.8249,39.5505,17.02000000000004,82,58,2.54,RU,1688523953
245,fallon,39.4735,-118.7774,33.93000000000001,16,0,2.06,US,1688523953
246,arklow,52.7931,-6.1414,10.600000000000023,90,27,4.88,IE,1688523953
247,zhuangyuan,37.2975,120.8256,30.379999999999995,49,0,6.24,CN,1688523953
248,al hilaliyya,14.9398,33.234,29.28000000000003,52,41,6.08,SD,1688523954
249,port isabel,26.0734,-97.2086,30.04000000000002,82,0,7.2,US,1688523797
250,tevriz,57.509,72.4042,22.180000000000007,63,12,1.43,RU,1688523954
251,thinadhoo,0.5333,72.9333,28.439999999999998,69,100,6.34,MV,1688523954
252,tadine,-21.55,167.8833,23.53000000000003,64,86,4.42,NC,1688523955
253,sadao,6.6388,100.4234,29.900000000000034,78,24,0.95,TH,1688523955
254,malvan,16.0667,73.4667,26.07000000000005,91,100,8.18,IN,1688523955
255,saldanha,-33.0117,17.9442,6.03000000000003,72,25,6.41,ZA,1688523956
256,katsuren-haebaru,26.3369,127.8719,31.210000000000036,78,40,8.23,JP,1688523576
257,myrina,39.8797,25.0742,24.58000000000004,78,0,4.63,GR,1688523957
258,enniscorthy,52.5008,-6.5578,11.379999999999995,98,4,3.36,IE,1688523957
259,llanes,43.4198,-4.7549,19.180000000000007,85,80,2.25,ES,1688523957
260,illizi,26.4833,8.4667,33.89000000000004,15,0,7.38,DZ,1688523958
261,polovinnoye,54.7914,65.9864,22.29000000000002,74,1,3.78,RU,1688523958
262,kuragino,53.8975,92.6725,17.180000000000007,76,100,0.27,RU,1688523958
263,manta,-0.95,-80.7333,26.670000000000016,78,40,8.05,EC,1688523958
264,namtsy,62.7161,129.6658,21.870000000000005,38,100,2.85,RU,1688523959
265,altai,46.3722,96.2583,14.370000000000005,34,18,1.9,MN,1688523713
266,hawaiian paradise park,19.5933,-154.9731,26.730000000000018,82,100,4.63,US,1688523683
267,udachny,66.4167,112.4,21.360000000000014,45,100,3.8,RU,1688523648
268,san nicolas,18.1725,120.5953,30.950000000000045,74,20,3.09,PH,1688523960
269,metlili chaamba,32.2667,3.6333,31.52000000000004,22,0,2.06,DZ,1688523960
270,chibougamau,49.9168,-74.3659,20.79000000000002,78,0,2.42,CA,1688523960
271,nueve de julio,-35.4444,-60.8831,16.650000000000034,99,18,1.79,AR,1688523960
272,ulety,51.3572,112.4849,14.770000000000039,97,100,2.04,RU,1688523961
273,nikolayevsk-on-amure,53.1406,140.73,22.950000000000045,50,26,4.13,RU,1688523961
274,nishinoomote,30.7333,131.0,29.310000000000002,94,40,9.77,JP,1688523961
275,mweka,-4.85,21.5667,19.02000000000004,58,0,0.51,CD,1688523963
276,lubango,-14.9172,13.4925,11.920000000000016,35,0,3.09,AO,1688523963
277,vadso,70.0744,29.7487,9.490000000000009,93,100,3.6,NO,1688523700
278,itambacuri,-18.0311,-41.685,14.160000000000025,97,1,1.87,BR,1688523963
279,mircea voda,44.2833,28.1667,19.340000000000032,90,0,1.26,RO,1688523964
280,el bauga,18.262,33.9081,30.910000000000025,13,0,3.98,SD,1688523964
281,bolvadin,38.7111,31.0486,20.80000000000001,63,0,1.64,TR,1688523964
282,cody,44.5263,-109.0565,13.560000000000002,69,100,3.6,US,1688523964
283,peterhead,57.5058,-1.7981,11.220000000000027,79,100,2.12,GB,1688523965
284,gitarama,-2.0744,29.7567,13.700000000000045,78,9,1.06,RW,1688523965
285,lagoa,39.05,-27.9833,19.04000000000002,74,4,1.6,PT,1688523965
286,shakiso,5.75,38.9167,13.78000000000003,98,100,0.74,ET,1688523965
287,kavaratti,10.5669,72.642,26.78000000000003,81,100,12.94,IN,1688523664
288,maymana,35.9214,64.7836,24.79000000000002,25,0,0.69,AF,1688523966
289,hirna,9.2167,41.1,15.610000000000014,90,92,2.3,ET,1688523966
290,polyarnyy,69.1989,33.4478,9.5,96,99,3.04,RU,1688523648
291,dudinka,69.4058,86.1778,21.460000000000036,84,100,6.63,RU,1688523660
292,sao jose da coroa grande,-8.8978,-35.1478,24.129999999999995,79,100,6.07,BR,1688523967
293,ouadda,8.0777,22.4007,19.120000000000005,98,100,1.32,CF,1688523967
294,saint-francois,46.4154,3.9054,19.689999999999998,68,100,2.57,FR,1688523736
295,san andres,12.5847,-81.7006,29.010000000000048,79,20,4.63,CO,1688523968
296,selfoss,63.9331,-20.9971,6.689999999999998,79,48,4.93,IS,1688523678
297,chongwe,-15.3292,28.682,10.960000000000036,87,0,1.35,ZM,1688523969
298,altamont,42.2068,-121.7372,31.05000000000001,20,0,5.66,US,1688523969
299,forster,-32.1667,152.5167,21.879999999999995,54,2,2.1,AU,1688523969
300,nar'yan-mar,67.6713,53.087,14.350000000000023,82,45,7.39,RU,1688523970
301,farim,12.4839,-15.2217,26.340000000000032,86,100,2.64,GW,1688523970
302,ypsonas,34.6884,32.9574,22.54000000000002,88,0,2.06,CY,1688523970
303,bodaybo,57.8506,114.1933,24.439999999999998,68,100,1.27,RU,1688523970
304,saudarkrokur,65.7461,-19.6394,5.010000000000048,96,100,5.22,IS,1688523971
305,muisne,0.6,-80.0333,26.480000000000018,85,78,3.71,EC,1688523671
306,praia da vitoria,38.7333,-27.0667,20.140000000000043,88,20,2.32,PT,1688523637
307,punta arenas,-53.15,-70.9167,1.0600000000000023,86,0,0.0,CL,1688523654
308,marka,1.7159,44.7717,23.860000000000014,84,14,5.06,SO,1688523972
309,vanimo,-2.6741,141.3028,27.840000000000032,82,100,1.78,PG,1688523730
310,ribeira brava,32.65,-17.0667,22.350000000000023,81,61,0.9,PT,1688523972
311,kialla,-36.4161,145.3954,11.54000000000002,74,38,3.5,AU,1688523972
312,severo-yeniseyskiy,60.3725,93.0408,19.24000000000001,61,32,2.36,RU,1688523973
313,mollendo,-17.0231,-72.0147,16.600000000000023,89,60,3.42,PE,1688523973
314,daru,-9.0763,143.2092,28.720000000000027,75,90,4.97,PG,1688523662
315,antofagasta,-23.65,-70.4,16.600000000000023,81,44,1.55,CL,1688523973
316,paphos,34.7667,32.4167,21.879999999999995,83,0,2.06,CY,1688523713
317,birjand,32.8663,59.2211,21.260000000000048,21,0,4.12,IR,1688523974
318,radomyshl,50.4961,29.2291,18.74000000000001,73,100,2.68,UA,1688523974
319,mabaruma,8.2,-59.7833,23.640000000000043,95,99,1.35,GY,1688523974
320,nova sintra,14.8667,-24.7167,22.170000000000016,88,99,5.84,CV,1688523658
321,mount pearl,47.5166,-52.7813,20.189999999999998,98,100,6.17,CA,1688523680
322,manggar,-2.8833,108.2667,27.920000000000016,81,73,4.0,ID,1688523975
323,toliara,-23.35,43.6667,17.860000000000014,84,0,1.88,MG,1688523975
324,usinsk,65.9939,57.5281,16.660000000000025,68,12,7.24,RU,1688523745
325,gorontalo,0.5412,123.0595,30.510000000000048,65,60,1.21,ID,1688523976
326,darwin,-12.4611,130.8418,29.99000000000001,54,20,3.6,AU,1688523887
327,yelizovo,53.1873,158.3805,23.08000000000004,64,0,4.02,RU,1688523976
328,kpandae,8.4689,-0.0113,22.950000000000045,96,100,3.63,GH,1688523977
329,acarau,-2.8856,-40.12,26.670000000000016,80,66,7.91,BR,1688523800
330,ipueiras,-7.0333,-40.45,20.970000000000027,62,74,6.4,BR,1688523977
331,gangapur,26.4833,76.7167,30.560000000000002,63,91,0.22,IN,1688523977
332,cabo san lucas,22.8909,-109.9124,31.450000000000045,68,0,8.23,MX,1688523673
333,luanda,-8.8368,13.2343,20.0,88,75,1.54,AO,1688523707
334,abeche,13.8292,20.8324,30.110000000000014,36,62,1.03,TD,1688523560
335,tobruk,32.0836,23.9764,23.390000000000043,87,1,4.32,LY,1688523915
336,sydney mines,46.2367,-60.2177,17.920000000000016,96,100,1.03,CA,1688523978
337,sargur,11.9833,76.4167,20.120000000000005,94,100,4.63,IN,1688523979
338,gillette,44.2911,-105.5022,13.510000000000048,75,100,1.54,US,1688523979
339,kogalym,62.2654,74.4791,25.400000000000034,60,14,4.22,RU,1688523979
340,tindouf,27.6711,-8.1474,31.25,23,0,10.29,DZ,1688523682
341,rivera,-30.9053,-55.5508,17.129999999999995,80,60,3.64,UY,1688523980
342,port shepstone,-30.7414,30.455,15.860000000000014,67,48,8.23,ZA,1688523980
343,kilindoni,-7.9139,39.6668,24.860000000000014,70,0,5.49,TZ,1688523980
344,amboasary,-25.0333,46.3833,16.900000000000034,68,0,2.24,MG,1688523981
345,ataq,14.5377,46.8319,26.170000000000016,55,8,2.91,YE,1688523981
346,"laikit, laikit ii (dimembe)",1.4792,124.9735,27.470000000000027,79,40,1.03,ID,1688523981
347,buala,-8.145,159.5921,26.980000000000018,86,98,6.26,SB,1688523982
348,shakawe,-18.3667,21.85,10.710000000000036,51,3,1.92,BW,1688523982
349,gimbi,9.1667,35.8333,13.07000000000005,98,100,1.06,ET,1688523982
350,buzuluk,52.7807,52.2635,20.210000000000036,77,17,1.79,RU,1688523983
351,tshabong,-26.05,22.45,10.5,31,0,3.25,BW,1688523983
352,okhotsk,59.3833,143.3,16.140000000000043,66,20,4.43,RU,1688523742
353,al matariyah,31.1829,32.0311,24.970000000000027,77,0,3.32,EG,1688523983
354,howrah,22.5892,88.3103,31.0,79,40,2.57,IN,1688523694
355,kingston,17.997,-76.7936,27.53000000000003,91,20,3.6,JM,1688523644
356,sassandra,4.95,-6.0833,24.410000000000025,91,93,2.66,CI,1688523984
357,fort bragg,35.139,-79.006,28.32000000000005,75,100,5.66,US,1688523534
358,tsiombe,-25.3,45.4833,16.640000000000043,68,0,3.26,MG,1688523985
359,uberaba,-19.7483,-47.9319,18.32000000000005,48,0,3.09,BR,1688523985
360,cuatro cienegas de carranza,26.9833,-102.0833,28.02000000000004,61,58,4.58,MX,1688523985
361,ta`u,-14.2336,-169.5144,27.170000000000016,78,99,10.06,AS,1688523690
362,san martin,-33.081,-68.4681,11.300000000000011,65,0,1.87,AR,1688523986
363,serenje,-13.2325,30.2352,8.770000000000039,95,0,2.03,ZM,1688523986
364,poronaysk,49.2167,143.1167,11.390000000000043,96,100,1.49,RU,1688523986
365,ulsteinvik,62.3432,5.8487,10.970000000000027,86,23,3.13,NO,1688523986
366,nizhniy kuranakh,58.8353,125.4869,25.03000000000003,64,100,2.81,RU,1688523751
367,enriquillo,17.9,-71.2333,25.710000000000036,90,100,7.87,DO,1688523987
368,enewetak,11.3474,162.3373,28.310000000000002,77,26,8.31,MH,1688523634
369,turan,16.0678,108.2208,30.99000000000001,66,20,1.03,VN,1688523837
370,kingsford,-33.924,151.2275,20.920000000000016,69,40,2.57,AU,1688523988
371,bamyan,34.75,67.25,7.7000000000000455,55,0,2.49,AF,1688523988
372,new norfolk,-42.7826,147.0587,11.720000000000027,63,91,1.16,AU,1688523707
373,kavieng,-2.5744,150.7967,26.5,82,100,1.98,PG,1688523988
374,narvik,68.4384,17.4272,14.660000000000025,83,100,2.22,NO,1688523758
375,cidreira,-30.1811,-50.2056,16.700000000000045,91,54,4.34,BR,1688523648
376,greenland,43.0362,-70.8328,22.140000000000043,93,100,0.45,US,1688523989
377,barcelos,41.5388,-8.6151,18.80000000000001,95,15,1.93,PT,1688523989
378,chaplygin,53.2432,39.9629,16.55000000000001,83,9,2.69,RU,1688523989
379,oum hadjer,13.2954,19.6966,32.879999999999995,36,94,3.93,TD,1688523990
380,mykolayiv,46.9659,31.9974,22.58000000000004,59,4,3.33,UA,1688523991
381,luderitz,-26.6481,15.1594,16.0,53,0,3.36,NA,1688523622
382,tromso,69.6496,18.957,11.32000000000005,87,100,1.03,NO,1688523991
383,bubaque,11.2833,-15.8333,27.58000000000004,80,100,5.83,GW,1688523710
384,yeosu,34.7546,127.6599,25.870000000000005,78,100,5.82,KR,1688523621
385,tauranga,-37.6861,176.1667,16.08000000000004,72,100,2.68,NZ,1688523842
386,fort st. john,56.2499,-120.8529,23.939999999999998,38,20,2.06,CA,1688523992
387,zorritos,-3.6805,-80.6782,27.160000000000025,77,97,0.74,PE,1688523993
388,taoudenni,22.6783,-3.9836,38.879999999999995,15,0,2.38,ML,1688523672
389,sinop,41.7711,34.8709,19.120000000000005,48,0,2.58,TR,1688523993
390,dolores,-36.3132,-57.6792,14.850000000000023,97,23,2.71,AR,1688523794
391,hithadhoo,-0.6,73.0833,28.33000000000004,69,100,6.62,MV,1688523670
392,ebon,4.582,168.6964,28.010000000000048,77,99,7.35,MH,1688523947
393,maslovka,51.5535,39.2357,16.29000000000002,90,7,1.48,RU,1688523994
394,hotan,37.0997,79.9269,26.390000000000043,21,100,3.91,CN,1688523994
395,portland,45.5234,-122.6762,34.200000000000045,25,75,5.14,US,1688523631
396,timbiqui,2.7717,-77.6654,25.210000000000036,92,92,0.37,CO,1688523995
397,antonio enes,-16.2325,39.9086,23.640000000000043,65,98,2.12,MZ,1688523995
398,matadi,-5.8167,13.45,19.930000000000007,97,31,1.43,CD,1688523995
399,armacao de buzios,-22.7469,-41.8817,14.03000000000003,73,5,4.9,BR,1688523996
400,kozhevnikovo,56.2589,83.9714,19.400000000000034,62,100,3.27,RU,1688523996
401,valdosta,30.8327,-83.2785,27.970000000000027,82,0,3.09,US,1688523996
402,igarka,67.4667,86.5833,18.230000000000018,83,67,6.54,RU,1688523695
403,machico,32.7,-16.7667,22.350000000000023,82,75,4.12,PT,1688523997
404,meadow lake,34.8014,-106.5436,33.710000000000036,20,48,4.89,US,1688523782
405,malango,-2.9627,119.9001,26.420000000000016,66,77,1.44,ID,1688523997
406,cachoeirinha,-29.9511,-51.0939,18.510000000000048,91,0,1.54,BR,1688523998
407,vahdat,38.5563,69.0135,24.410000000000025,38,20,4.0,TJ,1688523999
408,mar del plata,-38.0023,-57.5575,12.830000000000041,99,100,8.94,AR,1688523711
409,damara,4.9608,18.7035,21.170000000000016,97,100,1.17,CF,1688523999
410,ancud,-41.8697,-73.8203,8.939999999999998,76,100,9.18,CL,1688523663
411,tete,-16.1564,33.5867,21.05000000000001,68,75,0.0,MZ,1688524000
412,torzhok,57.0436,34.9622,14.120000000000005,91,57,2.38,RU,1688524001
413,mangaldai,26.4333,92.0333,28.77000000000004,82,28,0.73,IN,1688524001
414,salinopolis,-0.6136,-47.3561,26.060000000000002,84,64,3.06,BR,1688523481
415,nenjiang,49.1833,125.2167,26.480000000000018,46,100,9.07,CN,1688524002
416,inongo,-1.95,18.2667,19.960000000000036,71,19,1.58,CD,1688523789
417,luohe,33.5717,114.0353,30.660000000000025,50,3,4.45,CN,1688523997
418,kiunga,-6.1219,141.2906,27.920000000000016,83,99,0.52,PG,1688523728
419,behompy,-23.2496,43.8557,15.79000000000002,86,0,1.64,MG,1688524002
420,brokopondo,4.75,-55.1667,25.100000000000023,88,100,3.96,SR,1688524003
421,sao joao da barra,-21.6403,-41.0511,19.379999999999995,69,97,2.17,BR,1688523753
422,wesselsbron,-27.8549,26.3658,7.890000000000043,50,0,1.07,ZA,1688524004
423,uvira,-3.4067,29.1458,21.04000000000002,72,1,1.8,CD,1688524004
424,qarqaraly,49.4058,75.4742,18.010000000000048,64,100,4.0,KZ,1688524004
425,whakatane,-37.9585,176.9854,16.400000000000034,76,100,3.13,NZ,1688524005
426,margate,51.3813,1.3862,12.610000000000014,87,100,3.13,GB,1688523718
427,nokia,61.4667,23.5,12.620000000000005,93,40,4.63,FI,1688524005
428,kamyzyak,46.11,48.0736,22.99000000000001,68,0,0.0,RU,1688524006
429,atherton,53.5237,-2.4935,13.270000000000039,88,88,1.36,GB,1688524006
430,georgetown,5.4112,100.3354,30.960000000000036,78,20,2.57,MY,1688523613
431,kone,-21.0595,164.8658,27.140000000000043,47,7,1.69,NC,1688524007
432,kayangel,8.0823,134.7173,28.590000000000032,74,100,3.53,PW,1688523673
433,minas de marcona,-15.2119,-75.1103,13.25,86,79,5.74,PE,1688523784
434,nuuk,64.1835,-51.7216,8.340000000000032,87,100,2.24,GL,1688524008
435,mount gambier,-37.8333,140.7667,11.580000000000041,78,54,4.55,AU,1688523689
436,neijiang,29.5835,105.0622,25.760000000000048,71,15,0.57,CN,1688524009
437,rocha,-34.4833,-54.3333,18.950000000000045,71,79,6.3,UY,1688524009
438,lompoc,34.6391,-120.4579,20.010000000000048,80,100,4.02,US,1688523631
439,westport,41.1415,-73.3579,24.120000000000005,91,75,2.06,US,1688523753
440,zouerate,22.7187,-12.4521,32.53000000000003,21,18,8.68,MR,1688524010
441,fortuna,40.5982,-124.1573,13.189999999999998,100,100,3.09,US,1688523632
442,najran,17.4924,44.1277,26.360000000000014,39,100,2.11,SA,1688524011
443,chui,-33.6971,-53.4616,15.950000000000045,89,12,4.15,UY,1688523675
444,rio grande,-32.035,-52.0986,15.53000000000003,92,14,4.32,BR,1688523724
445,nassau,40.7507,-73.5829,25.03000000000003,82,0,0.45,US,1688524011
446,cikampek,-6.4197,107.4558,28.370000000000005,68,4,0.77,ID,1688524012
447,san patricio,28.017,-97.5169,30.100000000000023,71,75,6.89,US,1688523739
448,umm qasr,30.0405,47.9168,28.930000000000007,16,0,5.53,IQ,1688524012
449,puerto ayacucho,5.6639,-67.6236,24.30000000000001,93,100,1.65,VE,1688524012
450,parichhatgarh,28.9833,77.9333,29.24000000000001,70,100,5.5,IN,1688524013
451,petropavlovsk-kamchatsky,53.0452,158.6483,22.33000000000004,64,0,4.0,RU,1688524013
452,kerikeri,-35.2268,173.9474,16.060000000000002,82,100,1.34,NZ,1688523728
453,mangai,-4.05,19.5333,20.879999999999995,53,1,0.62,CD,1688524014
454,kalmunai,7.4167,81.8167,27.129999999999995,73,100,4.19,LK,1688523766
455,todabhim,26.9167,76.8167,30.439999999999998,61,84,0.91,IN,1688524014
456,codajas,-3.8367,-62.0569,25.430000000000007,78,53,1.15,BR,1688524014
457,badger,64.8,-147.5333,20.840000000000032,46,75,5.66,US,1688523678
458,czersk,53.7959,17.9765,7.480000000000018,89,7,2.05,PL,1688524015
459,salalah,17.0151,54.0924,27.05000000000001,94,100,1.54,OM,1688524015
460,altkirch,47.5833,7.1667,17.140000000000043,93,77,3.8,FR,1688524015
461,tirlyanskiy,54.2109,58.5806,19.160000000000025,74,1,1.12,RU,1688524016
462,arkhangel'sk,64.5401,40.5433,13.5,74,4,3.92,RU,1688523957
463,san antonio de pale,-1.4014,5.6325,23.310000000000002,85,70,4.48,GQ,1688524016
464,the pas,53.8251,-101.2541,15.010000000000048,51,0,5.66,CA,1688524016
465,torbat-e heydariyeh,35.274,59.2195,21.100000000000023,31,0,5.2,IR,1688524017
466,banlung,13.7468,107.0045,28.510000000000048,61,86,1.56,KH,1688524017
467,cosne-cours-sur-loire,47.3333,3.1667,15.120000000000005,88,94,6.84,FR,1688524017
468,kitgum,3.2783,32.8867,18.629999999999995,94,70,0.73,UG,1688524018
469,utete,-7.986,38.758,19.82000000000005,86,37,1.18,TZ,1688524018
470,contamana,-7.3333,-75.0167,26.140000000000043,62,40,1.12,PE,1688524019
471,sisimiut,66.9395,-53.6735,5.8799999999999955,92,100,1.53,GL,1688523675
472,twentynine palms,34.1356,-116.0542,33.920000000000016,7,0,4.7,US,1688524019
473,alexandria,31.2156,29.9553,23.30000000000001,75,58,5.22,EG,1688524020
474,sona,45.4388,10.8255,20.689999999999998,82,86,2.18,IT,1688524020
475,beira,-19.8436,34.8389,18.730000000000018,87,1,1.91,MZ,1688524020
476,suva,-18.1416,178.4415,25.710000000000036,61,40,3.09,FJ,1688524020
477,cooper's town,26.8667,-77.5167,29.03000000000003,72,97,3.18,BS,1688524021
478,zhangye,38.9342,100.4517,27.060000000000002,16,32,0.5,CN,1688524021
479,ellsworth,44.5434,-68.4195,21.27000000000004,95,0,3.09,US,1688524022
480,pekalongan,-6.8886,109.6753,27.78000000000003,64,12,0.72,ID,1688523480
481,taseyevo,57.2169,94.8978,22.879999999999995,48,9,2.19,RU,1688524022
482,walvis bay,-22.9575,14.5053,20.78000000000003,29,0,3.18,NA,1688523649
483,naze,28.3667,129.4833,30.510000000000048,75,100,9.12,JP,1688524023
484,port blair,11.6667,92.75,28.0,82,100,8.26,IN,1688523704
485,le port,-20.9373,55.2919,20.980000000000018,82,3,3.42,RE,1688524024
486,maracanau,-3.8767,-38.6256,27.810000000000002,74,20,6.69,BR,1688524024
487,envira,-7.3,-70.2167,24.57000000000005,84,77,1.19,BR,1688524024
488,colonia,50.9333,6.95,18.310000000000002,83,40,6.17,DE,1688523707
489,peace river,56.2501,-117.286,23.170000000000016,40,20,5.14,CA,1688523781
490,sarangani,5.4033,125.4636,28.05000000000001,71,85,1.5,PH,1688523734
491,lazaro cardenas,17.9583,-102.2,28.360000000000014,75,47,1.76,MX,1688524025
492,bulgan,48.8125,103.5347,12.700000000000045,77,100,2.19,MN,1688524025
493,plastun,44.7561,136.2939,15.340000000000032,97,100,2.44,RU,1688524026
494,bemidji,47.4736,-94.8803,18.28000000000003,89,40,1.54,US,1688524026
495,concordia,-31.393,-58.0209,20.99000000000001,73,92,3.58,AR,1688523785
496,pontes e lacerda,-15.2261,-59.3353,19.900000000000034,50,53,0.83,BR,1688524027
497,sake,-1.5736,29.045,15.050000000000011,92,9,0.67,CD,1688524027
498,kuanda,56.3161,116.0806,22.210000000000036,68,100,0.48,RU,1688524027
499,palikir - national government center,6.9248,158.1611,30.470000000000027,84,100,5.14,FM,1688523725
500,les cayes,18.2,-73.75,27.33000000000004,80,100,2.45,HT,1688524028
501,mulayjah,27.271,48.4242,32.08000000000004,14,31,5.3,SA,1688523637
502,dharur,18.8167,76.1167,23.29000000000002,89,100,4.33,IN,1688524028
503,awjilah,29.1081,21.2869,23.710000000000036,66,0,3.18,LY,1688523640
504,argo,37.6333,22.7333,23.210000000000036,62,0,1.56,GR,1688524029
505,gadzhiyevo,69.2551,33.3362,9.050000000000011,97,100,3.9,RU,1688523678
506,girvan,55.2426,-4.8555,12.0,87,95,3.06,GB,1688524029
507,priargunsk,50.3691,119.1012,16.640000000000043,95,100,8.49,RU,1688524029
508,hasaki,35.7333,140.8333,27.220000000000027,80,100,4.02,JP,1688523658
509,carolina beach,34.0352,-77.8936,27.04000000000002,89,100,4.12,US,1688524030
510,pangody,65.85,74.4859,22.230000000000018,64,0,6.5,RU,1688524031
511,jaen,38.0,-3.5,23.420000000000016,27,0,0.87,ES,1688524031
512,eksere,36.8134,31.9997,22.650000000000034,34,0,3.09,TR,1688524031
513,barra de santo antonio,-9.4047,-35.5072,24.600000000000023,78,84,6.05,BR,1688523765
514,tovuz,40.9922,45.6289,21.360000000000014,64,78,2.05,AZ,1688523826
515,kirkwood,38.5834,-90.4068,29.77000000000004,51,75,6.17,US,1688524032
516,qorveh,35.1664,47.8045,19.090000000000032,41,0,3.83,IR,1688524032
517,ploudalmezeau,48.5333,-4.65,14.140000000000043,93,0,2.57,FR,1688524033
518,wajir,1.7471,40.0573,21.189999999999998,78,2,3.27,KE,1688524033
519,brisas de zicatela,15.8369,-97.0419,27.680000000000007,84,100,2.26,MX,1688523717
520,rodez,44.5,2.5833,16.170000000000016,88,20,5.14,FR,1688524033
521,aneho,6.2333,1.6,23.610000000000014,94,100,3.87,TG,1688524034
522,haflong,25.1833,93.0333,23.900000000000034,100,99,1.31,IN,1688524034
523,quelimane,-17.8786,36.8883,20.970000000000027,88,75,1.54,MZ,1688523720
524,sanctuary point,-35.1114,150.629,19.0,56,64,5.12,AU,1688524034
525,natal,-5.795,-35.2094,24.360000000000014,88,0,5.14,BR,1688524035
526,ust'-ilimsk,58.0006,102.6619,23.140000000000043,57,100,5.08,RU,1688524035
527,mokhsogollokh,61.4681,128.9203,23.0,41,100,1.93,RU,1688523735
528,san clemente del tuyu,-36.3569,-56.7235,15.550000000000011,97,78,3.86,AR,1688524035
529,chapada dos guimaraes,-15.4606,-55.7497,15.810000000000002,37,63,2.37,BR,1688524036
530,sangkhla buri,15.1555,98.4536,23.700000000000045,98,100,0.51,TH,1688524036
531,buckhannon,38.994,-80.232,23.0,92,20,0.0,US,1688524036
532,burgersdorp,-30.9977,26.3286,5.2000000000000455,59,19,2.68,ZA,1688524036
533,brandon,27.9378,-82.2859,31.180000000000007,75,0,2.06,US,1688524037
534,lucea,18.451,-78.1736,28.920000000000016,81,6,2.99,JM,1688524037
535,byron bay,-28.65,153.6167,23.730000000000018,57,0,3.76,AU,1688523711
536,immokalee,26.4187,-81.4173,29.950000000000045,82,84,3.15,US,1688524037
537,guiglo,6.5456,-7.4966,21.720000000000027,97,100,1.01,CI,1688524038
538,matoury,4.8483,-52.3317,23.980000000000018,94,75,0.0,GF,1688524038
539,alindao,5.0267,21.2088,20.350000000000023,96,100,0.95,CF,1688524038
540,karratha,-20.7377,116.8463,20.660000000000025,57,58,3.67,AU,1688523664
541,albertina,-22.2008,-46.6158,10.460000000000036,73,0,2.48,BR,1688524039
542,tatarsk,55.219,75.9828,20.24000000000001,54,19,3.64,RU,1688523727
543,taulaga,-11.0553,-171.0883,27.890000000000043,79,53,8.87,AS,1688524039
544,ghormach,35.7306,63.7826,26.05000000000001,23,0,2.1,AF,1688524040
545,nizhnesortymskiy,62.4397,71.7603,24.420000000000016,61,60,2.62,RU,1688524040
546,extrema,-22.8547,-46.3183,10.430000000000007,83,0,1.83,BR,1688524040
547,jayapura,-2.5333,140.7,27.660000000000025,81,99,1.6,ID,1688524010
548,rantepao,-2.9701,119.8978,26.410000000000025,66,77,1.43,ID,1688524041
549,cananeia,-25.0147,-47.9267,16.05000000000001,89,3,1.73,BR,1688524041
550,prince rupert,54.3161,-130.3201,16.83000000000004,90,20,6.69,CA,1688523666
551,at taj,24.2049,23.2857,26.879999999999995,31,33,4.52,LY,1688524041
552,moultonborough,43.7548,-71.3967,21.54000000000002,95,0,2.24,US,1688524042
553,nouadhibou,20.931,-17.0347,20.99000000000001,94,75,7.72,MR,1688524042
554,dul'durga,50.6761,113.5931,13.990000000000009,97,100,1.69,RU,1688524042
555,loukhi,66.0764,33.0381,11.210000000000036,94,100,3.21,RU,1688524042
556,lukolela,-1.0605,17.1821,20.189999999999998,71,10,0.34,CD,1688524043
557,burang,30.25,81.1667,8.950000000000045,94,100,2.55,CN,1688524043
558,xiannu,32.4367,119.5508,29.720000000000027,65,49,2.93,CN,1688524043
559,tamanrasset,22.785,5.5228,26.950000000000045,13,0,1.03,DZ,1688524044
560,turrialba,9.9047,-83.6835,25.210000000000036,99,100,0.55,CR,1688524044
561,port saint john's,-31.6229,29.5448,15.830000000000041,64,100,7.27,ZA,1688523761
562,amal,59.051,12.7049,12.060000000000002,76,69,5.48,SE,1688524044
563,swift current,50.2834,-107.8014,15.450000000000045,51,0,2.57,CA,1688524045
564,strelka,58.0728,93.0344,22.879999999999995,52,0,2.16,RU,1688524045
565,tvoroyri,61.5556,-6.8111,9.310000000000002,75,97,4.48,FO,1688524045
566,gobabis,-22.45,18.9667,9.629999999999995,28,0,3.12,NA,1688523616
567,mabopane,-25.4977,28.1007,10.920000000000016,40,0,1.72,ZA,1688524046
568,veraval,20.9,70.3667,28.07000000000005,83,97,4.94,IN,1688524046
569,ceeldheer,3.8488,47.1806,23.870000000000005,79,57,7.87,SO,1688524046
570,santa marta,11.2408,-74.199,29.939999999999998,72,40,6.17,CO,1688524047
571,sampit,-2.5333,112.95,29.110000000000014,73,65,1.16,ID,1688524047
572,richards bay,-28.783,32.0377,18.640000000000043,79,90,6.04,ZA,1688523415
573,araxa,-19.5933,-46.9406,11.28000000000003,66,0,1.88,BR,1688524047
